properties.name;latitude;longitude
Institut Verdaguer;2.1870282;41.3874002
Escola Catalunya;2.2267325;41.4243809
Escola Galileo Galilei;2.0866035;41.3238587
Col·legi Ribas;2.0360233;41.4883492
Escola Jungfrau;2.243099;41.4517051
Escola Joan Miró;2.224811;41.4495206
Escola Mercè Rodoreda;2.2316478;41.4491609
Institut Front Marítim;2.2087131;41.4026579
Escola L'Arenal de Llevant;2.209221;41.4029461
Escola Superior d'Hosteleria de Barcelona;2.2114266;41.4043337
Centre Escolar San Francisco;2.2003614;41.4166338
Escola Catalònia;2.2008265;41.4125448
Joan Roca Guipúzcoa;2.1935373;41.4140759
la Sagrera;2.1925452;41.4013096
Jesuïtes Clot - El Clot;2.1910407;41.4128888
Sant Antoni Maria Claret;2.166545;41.4059237
Escola 30 Passos;2.1921687;41.4242914
Col·legi d'Educació Infantil i Primaria Fluvià;2.2073913;41.4072259
Institut Caterina Albert;2.1827543;41.410108
Escola Els Horts;2.200984;41.4246218
Escola Serra de Marina;2.2138368;41.4517337
Hamelin-Laie International School - Grup Sas;2.2900541;41.4741402
Col·legi Asunción de Nuestra Señora;2.2003258;41.40247
Escola L'Esperança;2.2010097;41.4468897
Escola Mas Casanovas;2.170625;41.4133488
CEE Sant Joan de la Creu;2.1694776;41.4602427
Escola Mestre Enric Gibert i Camins;2.1854689;41.4313183
Centre d'Estudis Jaume Balmes;2.1096998;41.35543
EOI de Barcelona - Drassanes;2.1735082;41.3769496
Institut Milà i Fontanals;2.1672924;41.3763524
Escola Parellada;2.0472726;41.3423528
Institut Leonardo da Vinci;2.0737752;41.4817142
Escola Pins del Vallès;2.0754659;41.4824782
Institut Salvador Espriu;2.1876885;41.4054799
English School;2.1427634;41.4186679
Escola El Carmel;2.1538154;41.4235805
Institut Escola Trinitat Nova;2.1855757;41.4484577
Escola Sagrada Família - Horta;2.161437;41.4264573
Escola Pere de Tera;2.2137496;41.4396838
Escola Àngel Guimerà;1.9661862;41.444905
Institut - Escola Torrelles (edifici groc);1.9868462;41.3597838
Escola Verns;2.2004699;41.4198502
Institut Escola Pere Lliscart;2.111161;41.3744653
Escola Sant Ramon Nonat - Sagrat Cor;2.1160786;41.3760739
Institut escola Gavà Mar;2.0155079;41.2665659
Escola Dolors Almeda;2.089408;41.3522818
Escola L'Eramprunyà;2.003391;41.3082254
Institut de Bruguers;2.0013384;41.3097892
Escola Jacme March;1.9972079;41.3036792
Escola Salvador Lluch;2.0013805;41.3055099
Col·legi Sagrada Família;2.0045718;41.3088723
Col·legi Maristes Champagnat;2.2444709;41.447556
Col·legi Badalonès;2.2463451;41.4472334
Sant Domènec Savio;2.2398643;41.4432424
Institut Puig Castellar;2.2016286;41.4553478
Sant Lluís de Pla i Amell Bosch;1.9419269;41.3313845
Escola Sant Cristòfor;1.9239401;41.3323616
Escola Sant Jordi;2.0077314;41.3913573
Institut Júlia Minguell;2.2147466;41.4381379
Escola Rafael Casanova;2.2172091;41.4359761
Institut Escola Rafael Alberti;2.2154447;41.4364124
Escola Baldiri Reixac;2.2225264;41.4428668
Escola Antoni Botey;2.2206243;41.4400942
CFA Gran Sol;2.2219539;41.4426924
Institut Eugeni d'Ors;2.223839;41.435951
Escola Feliu i Vegués;2.2208776;41.4449156
Col·legi Virolai;2.0285583;41.4125621
Escola l'Alzina;2.0227896;41.4140159
Escola Ramon Llull;2.1778134;41.4006563
Escola Elvira Cuyàs;2.1837842;41.4943905
La Salle Montcada;2.187944;41.4891929
Escola Pegaso - Instiut Príncep de Viana;2.1871453;41.4278803
Escola Pare Poveda;2.1416839;41.4170924
Escola Gravi;2.1388964;41.4207464
Escola Josep Maria de Sagarra;2.1402275;41.4191638
Escola Oficial d'Idiomes de Barcelona Vall d'Hebron;2.1386046;41.4270048
Escola Sadako;2.1341173;41.4180927
Escola Sant Martí;2.1976684;41.4044347
Escola Arrels;2.1812271;41.426633
Col·legi La Salle Congrés;2.1821196;41.4259153
Escola Castell Ciuró;2.026207;41.4110299
Institut Bernat el Ferrer;2.0272062;41.4106824
Institut Narcís Monturiol;2.1925099;41.3817403
Institut Joan Salvat Papaseit;2.1925488;41.3813371
Escola Alexandre Galí;2.1932335;41.3812089
Escola Milagros Consarnau;2.1295952;41.3643967
Institut Santa Eulàlia;2.1275671;41.3648141
Institut Bisbe Berenguer;2.1294125;41.3635255
Escola Frederic Mistral;2.1337027;41.3615812
Escola Mare Nostrum;2.15486;41.4365325
Institut Escola Art. Oriol Martorell;2.159732;41.440537
Institut Lluís Vives;2.1282471;41.3715821
Escola Mossèn Cinto Verdaguer;2.036809;41.4996896
Institut La Serreta;2.0346125;41.4979681
Escola Prat de la Manta;2.1273832;41.359503
Escola Pompeu Fabra;2.1236144;41.3636349
Aloma;2.1782654;41.4322775
Escola Betània - Patmos;2.1101103;41.3968893
Escola Pau Romeva;2.113196;41.3764254
Escola Lola Anglada;2.2562564;41.456952
Escola Can Palmer;2.0062394;41.3094798
Institut El Palau;1.9620293;41.454307
Escola José Juan Ortiz;1.9652124;41.4508059
Escola Vall de Palau;1.9641389;41.4511554
Col·legi Jesús i Maria;2.1324489;41.4093344
Institut de Sales;2.0284694;41.3187004
Institut Montserrat Roig;1.9743098;41.4454858
Escola Josep Pla;1.9742051;41.4511363
;1.9660922;41.4448669
Escola Joan Maragall;1.9696314;41.4470791
Institut Escola Turó d'en Caritg;2.2261623;41.4444272
Col·legi Inmaculada Concepción;2.0035779;41.3027908
Escola Santo Ángel;1.9936736;41.3034622
Escola Marcel·lí Moragas;1.9939139;41.3118151
CFA Barceloneta;2.1882853;41.3824979
Institut Joaquim Blume;2.0966693;41.3785197
Escola Joan Miró;2.1512515;41.3788579
Institut Ernest Lluch;2.1505605;41.3783112
Virgen de la Salud;2.0456551;41.3840481
Escola Salvador Espriu;2.0415177;41.3777214
Escola La Garalda;1.9971032;41.4272977
Institut Angeleta Ferrer i Sensat;2.0713627;41.4761253
EOI de Sant Cugat del Vallès;2.0897353;41.4774439
Escola Collserola;2.0897904;41.4778975
Col·legi Japonès de Barcelona;2.0632212;41.4970331
Col·legi Viaró;2.0811351;41.4847988
Escola Turó de Can Mates;2.0611385;41.4739316
Escola Pi d'en Xandri;2.08869;41.466256
Escola Gerbert d'Orlhac;2.0857486;41.4822154
Escola Sant Joan Baptista;2.1892274;41.3827588
Institut Joaquima Pla i Farreras;2.0907957;41.4792173
El Pinar de Nuestra Señora;2.074273;41.4573579
Institut Arnau Cadell;2.0701518;41.459949
Institut Begues;1.9046199;41.3350347
Àgora Sant Cugat International School;2.0782748;41.4940917
Escola Ciutat d'Alba;2.0682644;41.4711165
Escola Can Salvi;1.9627363;41.4508355
Escola l'Olivera;2.0678664;41.4817269
Escola Avenç;2.0947403;41.46507
Escola Garbí;2.0974489;41.3797931
Institut Montserrat Roig;2.1647917;41.4071931
Escola Thau;2.1049769;41.3875556
Frederic Mistral-Tècnic Eulàlia;2.117553;41.398607
Escola Nou Patufet;2.1605291;41.4047792
Escola Lavínia;2.1301709;41.3814861
Escola Marta Mata;2.0022221;41.3128789
Institut Manuel Vázquez Montalbán;2.2285978;41.4234664
Col·legi Sagrat Cor-Diputació;2.1739946;41.3951357
Sant Miquel Arcàngel;2.0172129;41.4140074
Escola La Sínia;2.0116863;41.4183598
Escola Montseny;2.0667069;41.3818089
Ateneu Instructiu;2.0550691;41.3725334
Escola Germans Amat i Targa;2.0114359;41.3243251
Escola Lexia;2.1393649;41.4144622
Escola Tàber;2.112578;41.4009812
Institut Escola Costa i Llobera;2.1084414;41.4014776
Escola Puig d'Agulles;1.9408285;41.4205314
Escola La Maquinista;2.1962377;41.4393112
Escola La Sedeta;2.1681462;41.4054065
Institut La Sedeta;2.1681501;41.4051042
Escola Els Xiprers;2.1020065;41.4199482
CEE Folch i Camarasa;2.1499267;41.4326382
Escola Pau Casals;2.1517794;41.4319866
CEE Vil·la Joana;2.0975075;41.4213194
Institut Can Margarit;1.9365213;41.4248383
Escola Baloo;2.1399785;41.4341548
Lycée Français de Barcelone;2.1190656;41.3924812
Escola Juan Ramón Jiménez;1.9192026;41.4717434
Escola Vicente Aleixandre;1.9177886;41.4719012
EOI de Martorell;1.9211295;41.4724968
Institut Joan Oró;1.9215058;41.4735576
Institut Pompeu Fabra;1.9222025;41.4749087
Santa Teresa - Ganduxer;2.1330118;41.3994259
Escola Pla de les Vinyes;2.0219265;41.3701954
Escola Lola Anglada;1.9159739;41.4798572
CEE El Pontarró;1.9096015;41.4868754
Escola La Inmaculada;2.0097477;41.3929018
Institut Salesians Sant Vicenç dels Horts;2.0083579;41.3904948
Escola Sant Josep;2.0026228;41.4014025
Escola La Guàrdia;2.0040004;41.3919245
Institut Gabriela Mistral;1.9965934;41.3945681
Escola Antoni Brusi;2.1892862;41.3908631
Escola del Corb;1.9326195;41.4195152
Institut Olorda;2.0544157;41.3835929
Escola Miquel Martí i Pol;2.0573381;41.3866611
Escolàpies Sant Martí - Barcelona;2.181769;41.4124358
Escola Les Acàcies;2.2047796;41.4042335
Escola La Mar Bella;2.2046446;41.3998972
Institut Narcís Monturiol;2.1447984;41.4323448
Escola Roser Capdevila;2.0763904;41.3700708
Escola Joan Juncadella;2.0098029;41.3992747
Escola Sant Vicenç;2.012388;41.3926322
Institut Josep Mestres i Busquets;2.0114377;41.313479
European International School of Barcelona;2.0945102;41.4692852
Escola Sant Antoni;1.9943131;41.3837791
INS Frederic Mompou;1.9931215;41.3835007
Centre Educatiu Jesuïtes de Gràcia. Kostka;2.1564154;41.4144489
Escola Frederic Mistral - Tècnic Eulàlia (Centre Tibidabo);2.1326397;41.4159703
Institut Moisès Broggi;2.1785229;41.4136204
Escola Mercè Rodoreda;1.9176865;41.4759904
Institut Lluís Companys;2.1517172;41.4965069
Institut Icària;2.1959072;41.3937891
La Salle Bonanova;2.1309911;41.4068083
Jesuïtes Sarrià - Sant Ignasi;2.1204461;41.4041924
Escola Llibertat;2.2328573;41.4547651
Institut La Pineda;2.2393971;41.4527068
Escola Joan Llongueras;2.2339923;41.4543467
Institut La Pineda - Aula de suport;2.2361835;41.4535431
Col·legi Cultural;2.2467152;41.4526351
Escola Llorens i Artigas;2.2324173;41.4485346
Institut Badalona VII;2.2367449;41.4455656
Escola Planas i Casals;2.2370933;41.4590805
Amor de Dios;2.1669395;41.4321196
Escola Pau Picasso;2.2270502;41.4497949
CEE Can Barriga;2.2407502;41.4567491
Institut del Teatre;2.1573904;41.3716722
Institut El Calamot;1.9923464;41.3077727
Amor de Déu;2.2220696;41.4274841
Escola Bressol Casa dels Infants de la Muntanyeta;1.9713136;41.2815177
Escola De Bosc de Montjuïc;2.161156;41.3691666
Escola Ignasi Iglésias;2.1913962;41.4415085
Escola Milà i Fontanals;2.1682274;41.3816395
Maristes Anna Ravell;2.1616756;41.3720609
Escola Poble-sec;2.164549;41.3705647
Escola La Muntanyeta;2.1475165;41.3700953
Escola Enric Granados;2.1421821;41.3570103
Institut de Corbera de Llobregat;1.9411981;41.4198762
Escola Miralletes;2.1789856;41.4136251
Escola Molí de Finestrelles;2.1895386;41.4391738
Centre d'Educació Infantil i Primària Josep Guinovart;1.9653116;41.2708071
Sant Ferran;1.9715159;41.2780755
British School Barcelona;1.9895993;41.272075
Escola La Vinyala;2.0087424;41.3883904
Institut Rafael Casanova;2.0287061;41.3549308
Escola Rafael Casanova;2.0282671;41.3542759
Llor;2.0240471;41.3560802
Institut Banús;2.1349516;41.4922719
Escola Calderón de la Barca;2.1719992;41.4334129
Escola Colònia Güell;2.0250264;41.3635969
Escola de Sant Andreu de la Barca;1.9787595;41.4431292
Jesuïtes Gràcia - Kostka;2.1551588;41.4110031
CEE Jeroni de Moragas;2.1208719;41.4982148
Institut Jaume Mimó;2.121465;41.4974728
FEDAC Montcada;2.1880838;41.4852339
Escola Oficial d'Idiomes Barcelona Sant Gervasi;2.1497076;41.4029019
Institut Escola del Treball;2.1476196;41.3889971
Centre Educatiu Providencia del Corazón de Jesús;2.1572696;41.4384418
Col·legi Sant Josep Obrer;2.1025795;41.3757714
Maristes Sants - les Corts;2.1351685;41.3830105
Escola Duran i Bas;2.1337213;41.3855615
Escola Diputació;2.1559385;41.38152
Escola Pia Sant Miquel;2.1538516;41.3913671
Institut Poeta Maragall;2.1566469;41.3915076
Escola Barcelona;2.1325528;41.3819299
Escola Mallorca;2.148112;41.3911052
Escola Pràctiques;2.1389696;41.3808864
Escola Sagrada Familia;2.1473672;41.3912078
Col·legi Pare Manyanet;2.1379772;41.3889341
Paideia;2.1396024;41.3877391
Institut Sants;2.1398427;41.381222
Escola Castella;2.1645023;41.3848928
Escola Jaume I;2.1381429;41.380707
Escola Bogatell;2.194939;41.3933561
Escola Marinada;2.1696732;41.4408794
Institut Enric Borràs;2.227518;41.4435636
Escola Pia Balmes;2.1517906;41.3981237
Institut Escola Art. Oriol Martorell;2.1726148;41.4413804
Escola Isidre Martí;2.0858589;41.3796136
Institut de Pallejà;1.992033;41.4271136
Escola Jacint Verdaguer;1.9945801;41.4216984
La Salle Horta;2.1607315;41.4366339
Escola Els Pins;2.1443221;41.4353915
Institut Josep Pla;2.1644879;41.431826
Escola Torrent de Can Carabassa;2.1627593;41.4270556
Institut Ferran Tallada;2.1640621;41.4206723
Dominiques Barcelona;2.1711148;41.4008743
Institut Anna Gironella de Mundet;2.1433216;41.4367698
Escola Institut Mirades;2.1528941;41.4263624
Bemen-3;2.1717761;41.4281567
Bemen-3;2.1723042;41.4283292
FEDAC-Amilcar;2.1716931;41.4297167
Institut Vall d'Hebron;2.1403819;41.4230802
Escola Mossèn Jacint Verdaguer;2.0820647;41.3585928
Col·legi Maristes Sants - les Corts;2.1355481;41.3747739
EOI Esplugues (Vicenta Vives);2.0965023;41.3760148
Escola Joan Maragall;2.09651;41.3714949
Escola Can Vidalet;2.0982977;41.3735454
Escola Matilde Orduña;2.0982375;41.3760283
Eugeni D'Ors;2.098714;41.3743342
Escola Antoni Gaudí;1.9508592;41.2686844
Escola Splai;2.1739607;41.433273
CFA Madrid;2.1744698;41.4348174
Institut Barcelona-Congrés;2.1737833;41.4291632
Centre Educatiu Santa Anna - Eixample;2.1731869;41.3945505
Institut Escola Pepa Colomer;2.0893257;41.3206907
CEE Can Rigol;2.0919782;41.3198217
Escola Seat;2.1383577;41.3594102
Institut Lluís Domenech i Montaner;2.1336896;41.3587323
Institut Gorgs;2.1298167;41.4872526
Institut Forat del Vent;2.1474939;41.4855242
Escola Saltells;2.1290699;41.494748
Escola Serraparera;2.1326083;41.4957927
Escola Xarau;2.1378668;41.4962038
Escola Turó de Guiera;2.135349;41.4867506
Escola San Martí;2.1415422;41.4909973
Escola Doctor Ferran i Clua;2.1789276;41.4242515
Institut L'Alzina;2.1788867;41.4245405
Escola Bressol Manigua;2.1793167;41.4238671
Escola Mas Rampinyo;2.1786155;41.4983353
Escola Pere Vila;2.1813242;41.3916549
Institut Pau Claris;2.1817085;41.3913554
Institut Consell de Cent;2.1746684;41.373235
Escola Charles Darwin;2.1032171;41.3279332
Institut Estany de la Ricarda;2.1011018;41.3273039
Escola Sant Jaume;2.0998871;41.3282962
Escola Honorable Josep Tarradellas;2.1007994;41.328627
Institut Salvador Dalí;2.1027952;41.3305083
Escola Bernat Metge;2.0953263;41.322488
Escola Jacint Verdaguer;2.0984547;41.3238906
CFA Terra Baixa;2.0873743;41.32024
Institut Baldiri Guilera;2.0904912;41.3227261
Escola Mare de Déu del Carme;2.0939265;41.3242699
Escola Ramon Llull;2.0883082;41.3222388
Institut Ribera Baixa;2.0861159;41.3246551
Escola Galileo Galilei;2.0866035;41.3238587
Institut Les Salines;2.0844981;41.3189649
Institut Escola del Prat;2.0842042;41.3150694
Escola Jaume Balmes;2.0882439;41.3171195
Col·legi Nostra Senyora del Mar - García Lorca;2.0962777;41.3275876
Escola del Parc;2.0900573;41.3288994
Col·legi La Seda de Barcelona;2.0912134;41.330726
Col·legi Mare de Déu del Carme;2.0923568;41.3284972
Escola Joan Maragall;2.0970411;41.3299283
Institut Illa dels Banyols;2.1013874;41.331661
Institut La Llauna;2.2449329;41.4427312
Escola Progrés;2.2446859;41.4423021
Escola Ventós i Mir;2.2457485;41.4447426
Col·legi Badalonès;2.2461158;41.444787
Joan Maragall FP;2.2457546;41.4443481
Betúlia;2.2437553;41.4449057
Escola La Caixa;2.203398;41.4169399
Escola Bac de Roda;2.1938895;41.4160978
Escola Brasil;2.205128;41.415869
Escola Isabel de Villena;2.0970631;41.3840967
Escola La Salle Gràcia;2.1545517;41.4070409
Escola La Sínia;2.1425136;41.4954795
Escola Ventós i Mir;2.2455034;41.4431917
Institut Manuel Carrasco i Formiguera;2.174251;41.4267986
Escola Pia de Nostra Senyora;2.1676717;41.3913625
Escola Oficial d'Idiomes de Santa Coloma de Gramenet;2.2003918;41.4567146
Escola Sant Ildefons;2.0815832;41.3620381
Escola de la Concepció;2.1683723;41.3955291
Escola del Mar;2.1701453;41.417883
Escola Torrent d'en Melis;2.1724076;41.4171493
Escola Alexandre Galí;2.0856088;41.3656672
Escola Torre de la Miranda;2.0857833;41.3626675
Fundació Akua;2.0040245;41.3598299
Col·legi Maristes la Immaculada;2.171918;41.398533
Institut Pedraforca;2.1117257;41.3728141
Escola Pia de Sarrià-Calassanç;2.1240115;41.407505
Escola Canigó;2.0807197;41.3856381
Escoles Maria Ward;2.2169224;41.441314
Escola Collserola;2.1468291;41.4868842
Escola Guinardó;2.1779626;41.4199693
Escola El Solell;1.9656295;41.4148912
Escola Bellvitge;2.1075025;41.3510867
Mare de Déu del Roser Les Planes;2.092468;41.4282471
Escola Pau Casals;2.0637292;41.3638002
Centre d'Estudis Montseny-Poblenou;2.210717;41.4103443
Escola Ferran de Sagarra;2.2099872;41.4451969
Institut Can Peixauet;2.2091554;41.4447054
Jesuïtes Bellvitge - Centre d'Estudis Joan XXIII;2.107861;41.3500265
Escola Ramon Muntaner;2.1095349;41.3492381
Institut Joan Fuster;2.1857369;41.418687
Institut Isaac Albéniz;2.2456999;41.4573977
Institut Pompeu Fabra;2.2447696;41.4573473
Escola d'Art i Superior de Disseny Pau Gargallo;2.245316;41.4561709
Escola Les Ciències;2.2335864;41.4597404
Escola Montigalà;2.2251428;41.4560058
Escola Nabí;2.1013938;41.4162638
Escola Francesc Escursell i Bartalot;2.1522232;41.4970081
Institut Infanta Isabel d'Aragó;2.1995707;41.4160322
Institut Joan d'Àustria;2.1988207;41.4159379
Escola La Palmera;2.2040582;41.4204228
Escola Marina;2.283751;41.4730613
Col·legi Pureza de María;2.0724419;41.4958281
Escola Thau Sant Cugat;2.0697521;41.4923949
Escola especial Nostra Senyora de Montserrat;2.13598;41.3579506
Escola Joaquim Ruyra;2.2145387;41.4111844
Escola Maria Montessori;2.034296;41.4844434
Jesús Maria;2.1677533;41.4405913
Escola El Palau;2.016379;41.4116299
Escola Parc de la Ciutadella;2.1879567;41.385098
Escola Bernat Metge;2.1114077;41.3542697
Institut Maria Canela;1.9237337;41.4769292
Centre Escolar Valldaura;2.1796983;41.442302
Centre Escolar Valldaura;2.1801431;41.442175
Escola Víctor Català;2.1768643;41.4394276
Institut Escola el Molí;2.180928;41.4449206
Escola Santiago Rusiñol;2.1804496;41.4396737
Escola Tibidabo;2.1831798;41.4428135
Institut Barri Besòs;2.212914;41.4117177
Institut Bernat Metge;2.2017103;41.4231937
Institut Rambla Prim;2.2122613;41.4158908
Institut Nou Barris;2.1806561;41.4404995
Escola Àgora;2.1683748;41.437516
Escola Pau Vila;2.1423897;41.3667417
Escola Bon Salvador;2.0468006;41.3760311
Escola Garbí Pere Vergés;2.2524042;41.4758191
Escola Bufalà;2.2430942;41.4635084
Escola Salvador Espriu;2.2479252;41.4644939
Institut Escola Sant Jordi;2.251055;41.4658735
Institut Pau Casals;2.2255459;41.4497149
Escola Jesús Maria;2.2236639;41.4488317
Escola Miguel Hernández;2.2212449;41.4492678
Escola Artur Martorell;2.2514984;41.4562257
CFA L'Alzina de Cerdanyola;2.1365915;41.4951203
Escola Proa;2.139842;41.3715734
Escola Heura;2.1639618;41.4270462
Escola Font d'en Fargas;2.1657573;41.422732
Escola Badalona Port;2.2408348;41.4387872
Institut Duc de Montblanc;2.0219267;41.4862531
Escola Ramon Llull;2.0222407;41.4873062
Escola Cintra;2.1686683;41.3783238
Joan Maragall;2.2388459;41.4420652
Escola Ramon Casas;2.1344657;41.3591409
Escola Massana;2.1711098;41.3810102
Col·legi Sant Andreu Natzaret;2.2462703;41.4489425
Col·legi Sant Andreu Natzaret;2.2478334;41.4473495
CEE Escola Llevant;2.2464485;41.4486716
Escola Les Fontetes;2.1491821;41.4903779
Escola Lola Anglada;2.2544266;41.4573996
Escola Folch i Torres;2.2225218;41.4520572
Escola Joan Coret;2.2209216;41.4548598
Institut Ventura Gassol;2.2202712;41.454238
Institut La Guineueta;2.1718296;41.4425669
Escola Santa Maria dels Apòstols;2.2105071;41.4183948
Escola Margarida Xirgu;2.2282137;41.4413632
Mare de Déu de la Salut;2.2276468;41.440647
Monlau - centre d'estudis;2.1906874;41.4229392
Institut La Ferreria;2.1772632;41.4843151
Escola Garigot;1.990703;41.2720272
Zürich Schule;2.1041422;41.3935917
Escola Nadal;2.0450903;41.383255
Mare de Déu de la Mercè;2.0482186;41.3805076
Lycée Français de Gavà - Bon Soleil;1.9998438;41.2724491
Escola Lluís Vives;1.9763818;41.2756612
Institut Les Marines;1.982254;41.2783797
Escolàpies Llúria;2.1682917;41.3940548
Escola Marianao;2.0221114;41.3456744
Escola Poblenou;2.197287;41.4098815
Escola Estel;2.0224512;41.4101741
Escola Sant Climent;1.9918593;41.3378504
Escola Casas;2.1924689;41.4083094
Escola La Farigola del Clot;2.1882256;41.4062606
CFA Montserrat Roig;2.1974045;41.404256
Escola Rambleta del Clot;2.1899266;41.4105152
Institut Sant Martí de Provençals;2.1959792;41.4217098
Escola Turó Blau;2.1911484;41.4280443
Escola Els Porxos;2.1980924;41.4148752
Centre d'educació Adela de Trenquelleón;2.1946285;41.413927
Institut Salvador Espriu;2.1879793;41.4056515
Escola Provençals;2.1947719;41.4079567
El Petit Santa Maria;2.2076861;41.4224818
Institut Salvador Seguí;2.1964324;41.4231142
Centre Educatiu Sagrat Cor Besòs;2.2182147;41.4154515
Escola L'Arc de Sant Martí;2.1996666;41.4227563
Escola Concepción Arenal;2.2154878;41.4173
Escola La Flor de Maig;2.1960771;41.402564
Escola Eduard Marquina;2.2142386;41.4182805
Escola Vila Olímpica;2.2028003;41.393841
Escola 9 Graons;2.1687204;41.4011804
Escola Prim;2.2119155;41.4200093
Centre Educatiu Grèvol;2.2113921;41.4049924
Escola Pia Sant Antoni;2.1641305;41.3783075
Escola Mafalda;2.1930146;41.4066983
Escola Vicente Ferrer;2.0265968;41.3461027
Escola Àngels Garriga;2.1678426;41.4259952
Escola Rius i Taulet;2.1501889;41.4080823
Escola Súnion;2.1452213;41.4104739
SIL;2.1356016;41.413062
Institut Pedralbes;2.1060995;41.3861324
Escola Cor de Maria-Sabastida;2.1685805;41.4284214
Institut Escola Viver;2.1859254;41.472742
Institut de Montserrat Miró i Vila;2.184961;41.4884912
Escola Font Freda;2.1898128;41.4899048
Escola dels Encants;2.183415;41.4038207
Escola Túrbula;2.212268;41.4247727
Escola La Pau;2.2093852;41.4240212
Escola l'Univers;2.1622367;41.4028762
Institut Escola Pallaresa;2.210551;41.4580103
Institut Numància;2.2117293;41.4579057
Escola de les Aigües;2.1667159;41.4091432
Escola Antoni Tàpies;2.0367184;41.341754
Escola Amat Verdú;2.0358344;41.342934
Institut Joaquim Rubió i Ors;2.036375;41.3423533
Escola Montseny;2.1484433;41.4155867
Escola Baldiri Reixac;2.1524152;41.4135049
Escola Barrufet;2.0360723;41.3390888
Col·legi Joan Bardina;2.0417008;41.343741
Escola Salesiana Mare de Déu dels Dolors;2.036065;41.3485029
Escola Ciutat Cooperativa;2.0338546;41.3569388
Escola Casablanca;2.0388767;41.3323341
Escola Montbaig;2.033746;41.334137
Escola Josep Maria Ciurana;2.0286003;41.3561332
Institut Escola Antaviana;2.1789068;41.4486025
Institut Escola El Til·ler;2.2033846;41.4388906
Escola Eulàlia Bota;2.1924202;41.4448438
Institut Escola Rec Comtal;2.1928688;41.4502734
Escola Fort Pienc;2.182542;41.3952166
Escola Arquitecte Gaudí;2.0415398;41.387586
Institut Teresa Pàmies;2.1679195;41.4082473
Institut de Sant Just Desvern;2.0750025;41.3888378
Institut Montserrat;2.1434145;41.4015514
Col·legi Alemany de Barcelona - Deutsche Schule Barcelona;2.089215;41.382876
Escola Can Fabra;2.1921352;41.4335168
Escola Bon Pastor;2.2042716;41.4358414
Escola Poeta Foix;2.1460562;41.4024147
Institut Escola La Mina;2.221101;41.4177368
Escola Pompeu Fabra;2.2212126;41.4311031
Escola Augusta;2.1413008;41.3970117
Escola Sant Miquel;2.0754031;41.364654
Institució cultural d'Arts i Humanitats;2.0725306;41.3668301
Escola Montserrat;2.0748121;41.3773382
Escola Betània;2.0772915;41.3574648
Escola L'Areny;2.0731793;41.3508208
Escola Els Pins;2.068809;41.3552862
Institut Esteve Terradas i Illa;2.0764162;41.3555871
Escola Antoni Gaudí;2.0788791;41.3561583
Escola Mediterrània;2.0784619;41.3559234
Col·legi Sant Antoni Maria Claret;2.0785822;41.3655248
Escola Montserrat;2.0801334;41.3668976
Institut Maria Aurèlia Capmany;2.0807952;41.365757
Institut Apel·les Mestres;2.0903553;41.3643064
Escola Pablo Neruda;2.0877143;41.3656344
Escola Lola Anglada;2.0778102;41.374488
Institut Severo Ochoa;2.0893408;41.3740868
Col·legi Natzaret;2.0810247;41.3731897
Escola Gras i Soler;2.0802065;41.3736708
Institut Francesc Macià;2.0714904;41.3582696
Institut La Mallola;2.0838839;41.3802918
Institut Jaume Salvador i Pedrol;2.0628479;41.369726
Institut Francesc Ferrer i Guàrdia;2.0635168;41.3691931
Escola Espai 3;2.0626974;41.3689566
Escola Joan Perich i Valls;2.0659723;41.374675
Escola Prat de la Riba;2.0921125;41.3714094
Escola Folch i Torres;2.0851567;41.3694257
Escola Santa Maria de Cervelló;1.9557374;41.3935691
Institut de Cervelló;1.9656809;41.3952308
Escola Nova;1.9662881;41.3960622
Institut Quatre Cantons;2.2001175;41.404402
Escola Pere IV;2.2002222;41.4048554
Institut d'Alella;2.3000968;41.4947565
Escola Fabra;2.2984966;41.4945688
Institut Tretzevents Waldorf-Steiner;2.077721;41.4444377
Escola Gassó i Vidal;2.1616001;41.5000906
Escola Xirinacs;2.1448981;41.383521
Institut Doctor Puigvert;2.1935231;41.4458337
Institut Montjuïc;2.1452475;41.3554882
Institut Escola d'Hoteleria i Turisme de Barcelona;2.1808804;41.4336095
Institut Valldemossa;2.1802295;41.4337618
Institut Flos i Calcat;2.181386;41.4379007
Escola Mercè Rodoreda;2.1858378;41.4460713
Institut Tecnològic de Barcelona;2.1862917;41.4534745
Col·legi Sant Gabriel;2.2162645;41.4306265
Escola Jesús, Maria i Josep;2.1918955;41.4285228
Institut Escola ARTS;2.1437692;41.3740152
Institut Ramon Berenguer IV;2.2072471;41.4647069
Escola Antoni Balmanya;2.1823591;41.4164919
Escola Antoni Balmanya;2.1823591;41.4164919
Escola Pompeu Fabra;2.1834203;41.4216766
Institut Can Mas;2.1657703;41.4989768
Institut Escola El Martinet;2.1668617;41.4934451
Escola Anselm Clavé;2.1562944;41.4991843
Escola Carles Buïgas;2.1484208;41.4857269
Institució Montserrat SCCL;2.1376253;41.3745938
Col·legi Singuerlin;2.2046813;41.4606045
Institut Terra Roja;2.2167049;41.4442519
Institut Les Vinyes;2.2047377;41.4570596
Escola Antoni Gaudí;2.2157742;41.4430853
Escola Banús;2.2141689;41.4461459
Escola Tanit;2.2147914;41.4450216
Escola Miguel de Unamuno;2.2112573;41.4440771
Escola Santa Coiloma;2.2049589;41.448387
Escola Fray Luis de León;2.2071723;41.4477762
Escola Sant Just;2.209041;41.4483144
Escola Mercè Rodoreda;2.21593;41.4501918
Escola Joan Salvat i Papasseit;2.2156765;41.450561
Escola Beethoven;2.2202396;41.4504025
Escola Wagner;2.2206724;41.4514983
Col·legi Les Neus;2.2190901;41.4513054
Escola Tres Pins;2.1602279;41.3674262
Escola Torre Balldovina;2.2031277;41.4528696
Escola Les Palmeres;2.2115056;41.4543074
Escola Ausiàs March;2.2174534;41.4536043
Escola Sagrada Familia;2.2062839;41.4583039
Escola Fructuós Gelabert;2.1704645;41.4060461
Escola Sagrada Família;2.1708421;41.4044529
Escola Riera Alta;2.2148634;41.4561126
Institut Escola Lluís Millet;2.1973001;41.4596547
Escola Gayarre;2.1404216;41.3728443
Col·legi Tecla Sala;2.0981612;41.3605759
Virgen del Carmen;2.210376;41.4503008
Escola Primavera;2.2057293;41.4623944
Escola Jaume Salvatella;2.2037955;41.4568915
CEE Josep Sol i Rodríguez;2.2098184;41.4608798
Centre d'educació especialitzada Balmes I;2.0321319;41.3371295
Institut Escola La Mina;2.2217218;41.4152647
Escola El Turó;2.1709534;41.4316809
Institut Eugeni d’Ors;2.1154488;41.3732274
Sagrado Corazón;2.1838092;41.3996975
Escola Norai;2.1035521;41.3745569
Institut Maria Espinalt;2.2029436;41.4057705
Escola Mitja Costa;2.174304;41.4831471
Col·legi Pineda;2.1195617;41.3568772
Escola Ciutat Comtal;2.1830771;41.4628426
Institut Joan Brossa;2.1674419;41.4146386
Abat Oliba-Spínola;2.1681111;41.4150209
Institut Ítaca;2.046993;41.3406397
Centre d'Estudis Roca;2.186313;41.421892
Escola Lola Anglada;2.1032117;41.3680327
Escola Miquel Martí i Pol;2.0174692;41.3237723
ISC;2.1350925;41.3858242
Escola Dovella;2.1856665;41.4114287
Institut Lluís de Requesens;2.0192124;41.4039686
Escola Pont de la Cadena;2.0184891;41.4062915
Institut Fort Pius;2.1798694;41.3941406
Escola Tabor;2.1789782;41.4072351
Escola Tabor;2.1790109;41.4072729
Escola Patronat Domenech;2.1580679;41.3985368
FEDAC - Santa Coloma;2.2102952;41.4499936
Institut La Bastida;2.2171;41.4583522
Acadèmia Fuster;2.2086448;41.4548545
Escola de Formació Professional Antoni Algueró;2.0751507;41.3776751
Institut Bellvitge;2.1137619;41.3522913
Col·legi Pare Enric d'Ossó;2.1137339;41.3495475
Institut Europa;2.1128617;41.3553804
Escola La Marina;2.1092771;41.3531289
Col·legi Maristes de Rubí;2.0366469;41.4904035
Escola Cau de la Guineu;1.9245239;41.4105372
Arrels-Esperança;2.2238292;41.4390989
Col·legi La Mercè;1.9299598;41.473343
Institut Mercè Rodoreda;2.1036382;41.3556781
Institut Escola Les Vinyes;1.9816911;41.4807756
Institut Vall d'Arús;1.9433615;41.3878344
Col·legi Ginesta;2.1677506;41.4608578
Escola Mestre Morera;2.1677216;41.4593396
Escola Ferrer i Guàrdia;2.1748165;41.4614477
Centre Educatiu Mare Alfonsa Cavin;2.1751525;41.4603143
Escola Elisenda de Montcada;2.1790169;41.4602537
Escola Gitanjali;2.2475889;41.4467347
Llar d'infants L'Escoleta de Badalona;2.2455774;41.4444858
Escola Cascavell;2.2137307;41.4204851
FEDAC Sant Andreu;2.1916539;41.4323308
Escola l'Estel;2.1888653;41.4193281
Escola El Sagrer;2.18968;41.4220234
Escola La Llacuna del Poblenou;2.198346;41.4021729
Escola Baró de Viver;2.1996785;41.4456605
Col·legi Abat Oliba-Loreto;2.1071428;41.3938782
Aula Escuela Europea;2.1075592;41.3987509
Escola Laia;2.1893098;41.4292296
Escola Laia;2.1896215;41.429266
Institut Josep Serrat i Bonastre;2.1481774;41.4066394
Saint Nicholas School;2.1634514;41.3965192
Escola Bàrkeno;2.1439359;41.3548632
Escola Madres Concepcionistas de la Enseñanza;2.1489337;41.4052391
Escola Cavall Bernat;2.1316768;41.3706292
Associació Centre Pedralbes;2.1142796;41.3979948
Sagrado Corazón;2.1205993;41.3929603
Escola Orlandai;2.1195709;41.3971284
St.George's School the British School of Catalunya;2.1182281;41.3992762
Scuola Dell'infanzia Maria Montessori;2.1206461;41.3981764
Escola Anglesola;2.1333294;41.3883417
Escola Voramar;2.1982473;41.3958426
Institut escola Tres Fonts de Les Corts;2.1301282;41.3850253
Escola Ítaca;2.1340595;41.3885332
Institut Escola Rec Comtal;2.1917345;41.4515588
Santísima Trinidad;2.1910878;41.4504244
Vedruna Gràcia Barcelona;2.1517724;41.4048533
Escola Nostra Senyora de Lurdes;2.1506858;41.4004019
Afa Ciutat Meridiana;2.1715929;41.4591363
Col·legi Sant Francesc Xavier;2.1579485;41.3724902
Col·legi Sant Josep;2.1552711;41.4024
Escola Timbaler del Bruc;2.1777233;41.4283762
Escola Cal Maiol;2.1360301;41.3727822
Escola Nou Patufet;2.1592008;41.4057152
Escola Josep Maria Jujol;2.1556369;41.3979662
Escola Emili Juncadella;2.1815102;41.4178925
Escola Municipal de Segones Oportunitats;2.1813778;41.4166654
Escola Guinardó;2.179651;41.4194618
Mare de Déu dels Àngels;2.1906751;41.4254311
Mare de Déu dels Àngels;2.1914651;41.4229448
Institut Pablo Ruiz Picaso;2.1797723;41.4597064
Escola Busquets i Punset;2.0966115;41.3630155
CEE L'Estel- Can Bori;2.0960379;41.3620609
Centre Educatiu Mare de Déu de la Soledat;2.1931977;41.433675
Institut Escola Turó de Roquetes;2.1731105;41.4463585
Institut Jaume Balmes;2.1666993;41.3923042
Col·legi Lestonnac;2.166542;41.3926916
Institut Escola Turó de Roquetes;2.1711886;41.446695
Escola Magòria;2.1459428;41.3715759
Escola Sagrada Família;2.186174;41.4388718
Escola Virolai;2.1520848;41.4175051
Escola Fort Pienc;2.1824289;41.3950111
Institut XXV Olimpíada;2.1485281;41.3701401
Llar d'Infants La Pomera;2.0598506;41.3666402
Col·legi Sant Gabriel;2.2117072;41.4206507
Col·legi Educació Especial Concha Espina;2.2087526;41.4183793
Col·legi Jesús Maria i Josep;2.1838448;41.4308857
Escola Palcam;2.1715896;41.4107735
Escola Parc del Guinardó;2.1700823;41.4200417
Institut Francisco de Goya;2.1700658;41.4207032
Escola Els Arenys;1.983052;41.4721852
Escola Sant Francesc d'Assís;2.0534646;41.3690108
Escola Benviure;1.9780416;41.4750977
Escola Drassanes;2.1777768;41.3792393
Institució Cultural del CIC;2.1389192;41.3975322
Institut Viladomat;2.1547362;41.3824614
Escola Mare de Déu de Montserrat;2.1353937;41.4260916
Escola d'Aprenents Sant Genís dels Agudells;2.1364185;41.4279306
Institut Can Vilumara;2.1036987;41.3628238
Escola Anselm Clavé;2.0714558;41.3556387
Escola Sagrada Família;2.0720605;41.3559553
Escola d'educació especial Tramuntana;2.0467932;41.3790172
Escola Falguera;2.0384088;41.3843354
Escola Barrufet;2.1346057;41.3769762
Escola Can Clos;2.1478936;41.3606227
Institut Martí Dot;2.0396;41.3850452
Escola Edumar;1.9783432;41.2703439
Laietània;2.2389181;41.4457878
Institut Escola de Mitjans Audiovisuals - EMAV;2.1383825;41.3676046
Escola Pep Ventura;2.1224732;41.3747913
Escola el Polvorí;2.1425797;41.363473
Escola Francesc Macià;2.1478592;41.3746745
Escola Àngel Guimerà;1.9944308;41.4161297
Escola Casal dels Àngels;2.1278347;41.3656981
Escola Casal dels Àngels;2.1185246;41.3646698
Escola Infant Jesús;2.1495795;41.3968135
Col·legi Tecla Sala;2.1014849;41.3614414
Col·legi Escaladei;2.1403142;41.4925665
Col·legi Montserrat;2.1420616;41.4900186
Escola Azorín;2.1262478;41.3664901
JesuÏtes Poble Sec - Sant Pere Claver;2.1736473;41.3732043
Santo Tomás;2.0342458;41.3475544
Pedagogium Cos;2.0391918;41.3413925
FEDAC-Cerdanyola;2.1425108;41.4915621
CEE Centre de Formació i Treball Flor de Maig;2.1203508;41.467472
Escola del Bosc;2.0403637;41.4940181
Escola Tiana de la Riba;2.1437039;41.4981446
Institut Escola Teresa Altet;2.0460434;41.4984659
CEE Ca N'Oriol;2.0455331;41.4990662
Deià Escola d'Art i Superior de Disseny;2.1677783;41.4442777
FEDAC-Ripollet;2.1540058;41.4978265
Institut Jaume Botey;2.1182801;41.3627998
Institut l'Estatut;2.0398314;41.4914834
Escola Pau Casals;2.1150873;41.3689299
Escola Joaquim Ruyra;2.1117338;41.3674048
Institut Eduard Fontserè;2.1119432;41.3671767
Escola Ítaca;2.2206917;41.4373649
Institut Barres i Ones;2.2212463;41.4375644
Col·legi Xaloc;2.1198667;41.3547063
Institut Provençana;2.1147534;41.3629805
Escola Josep Carner;2.2245989;41.4415135
Escola Santa Dorotea. Salesianes Sarrià;2.1291506;41.3936477
Institut Escola Gornal;2.1178253;41.3582403
Escola Pau Casals-Gràcia;2.1619233;41.4092233
Escola José Echegaray;1.9200088;41.4733464
Institut Joan Coromines;2.1448881;41.3729234
Institut Martí Pous;2.190674;41.4333892
Escola Menéndez Pidal;2.1110286;41.3728548
Col·legi La Mercè;1.9302573;41.4739672
Institut Menéndez y Pelayo;2.1446857;41.4002081
Escola Collaso i Gil;2.1694158;41.3758942
Escola Rubén Darío;2.1658494;41.3769833
Escola Coves d'en Cimany;2.1530565;41.4206419
Escola Coves d'en Cimany;2.1523882;41.4204554
Escola Joan Pelegrí;2.14476;41.3757403
Col·legi Lestonnac;2.2227511;41.4338857
Escola Josep Boada;2.2320019;41.4381154
Escola Octavio Paz;2.1893128;41.4143971
EASD Serra i Abella;2.122624;41.3587105
Saint Peter's School;2.106417;41.3890753
Escola Solc;2.1068318;41.3897214
Kensington School;2.1101278;41.3897654
Escola Santíssima Trinitat;2.1092886;41.3893608
Institut de Pedagogia Terapèutica Jeroni de Moragas;2.1073081;41.3958802
Saint Paul's School;2.1052181;41.3917132
The Benjamin Franklin International School;2.1188271;41.4062598
Institut Llobregat;2.1144223;41.3637223
Escola Josep Janés;2.1107892;41.3650584
Escola Joan Maragall;2.1091974;41.3636422
Els Arcs;2.1392172;41.4000211
Escola Pau Vila;2.1093303;41.3687803
Escola Sant Josep - el Pi;2.1091498;41.3646358
Escola Pau Sans;2.1110033;41.3618797
Colegi Camí;2.1799986;41.4295836
Escola Patufet Sant Jordi - Francesc Batallé i Aragonès;2.1029123;41.3570165
Escola l'Estel;2.1888653;41.4193281
Sant Lluís;2.1821477;41.442047
Institut Escola Baldomer Solà;2.2289619;41.4371457
Escola Pau Casals;2.0336574;41.4911254
Escola Santiago Ramón y Cajal;2.1220055;41.3690493
Institut Escola Maria Miret;2.1239182;41.3736018
Escola Ernest Lluch;2.1198375;41.3698311
Escola La Carpa;2.09989;41.366821
Escola La Floresta;2.0641267;41.4492713
La Farga. Escola Infanil;2.0600068;41.4627469
Col·legi La Farga;2.0576166;41.4693752
Institut Leonardo da Vinci;2.0538794;41.4801398
la Miranda;2.0833937;41.3872979
Jesuïtes Casp - Sagrat Cor de Jesús;2.1713798;41.3903315
Escola Arrels - Blanquerna;2.2479631;41.4615152
Institut Torrent dels Alous;2.0396412;41.4834427
Escola Entença;2.1474484;41.387548
Escola Entença;2.1472318;41.3875945
Col·legi Crea Nova;2.0559034;41.4810009
Sant Joan Bosco;2.1497716;41.4358053
Col·legi Sant Josep;2.0226258;41.3484876
Institut Marianao;2.0227261;41.3494167
Col·legi Sant Josep Primària;2.0229118;41.3456298
Escola Antoni Gaudí;2.03573;41.3491665
Highlands School Barcelona;2.0943623;41.3818476
Escola Marianao;2.0245065;41.3498428
Escola Mossèn Jacint Verdaguer;2.1545065;41.3732054
Lyceé Français de Barcelone;2.1292273;41.4056783
Escola El Garrofer;2.0124197;41.317158
Institut Miramar;2.005915;41.317268
Escola Montserratina;2.0061913;41.3196263
Institut Torre Roja;2.0184339;41.3229469
Institut Olímpia;2.0185023;41.3240991
Escola Dr. Trueta;2.0213919;41.3196764
The American School of Barcelona;2.084391;41.383545
Col·legi Madre Sacramento;2.078131;41.3799609
Escola Pau Vila;2.051112;41.387032
Escola Josep Monmany i Amat;2.0499658;41.3868032
Col·legi Sant Gabriel;2.0235722;41.3137613
Institut La Riera;2.2552739;41.4567065
Centre Educatiu Immaculada Concepció;2.1613101;41.4282988
Escola Els Llorers;2.1529238;41.3838259
Escola Gravi;2.1410602;41.4203701
Escola Can Massallera;2.0423656;41.3420526
Escola Arc Iris;2.1708365;41.4252685
Escola Auditori;2.1881048;41.3966881
Aloma;2.1788432;41.4324278
Institut Tiana;2.2633785;41.491399
Dominiques Vallirana;1.9281911;41.3820549
Institut Torras i Bages;2.1017797;41.3661324
Col·legi Sagrada Família;2.018947;41.3152776
Escola Mestral;2.049494;41.3934723
Institut Escola Catalunya;2.0484272;41.4690909
Escola Mare de Déu de Montserrat;2.0332691;41.4886932
Escola Dolors Monserdà-Santapau;2.1154936;41.4049749
Col·legi Padre Damián Sagrados Corazones;2.1162126;41.4053137
Cole·legi Garbiñe;2.1373428;41.3652508
Vedruna Àngels Barcelona;2.1679102;41.3832618
Institut Escola Elisabets;2.1680124;41.3839805
Escola Provençana;2.1295866;41.3687093
Institut Sagrera Sant Andreu;2.1937906;41.4392995
Escola Palma de Mallorca;2.177519;41.4329817
Virolai Petit;2.1570307;41.4120231
Centre Educatiu Reina Elisenda;2.1535617;41.4133247
Escola Regina Carmeli;2.158336;41.4344889
Institut Ventura Gassol;2.22436;41.4559857
CEFP Núria;2.0010969;41.3011449
Institut Castellbisbal;1.9829812;41.4782676
Escola Tomàs Moro;2.1634657;41.4427598
Escola turó del Cargol;2.1529467;41.4110869
Institut - Escola Torrelles (edifici verd);1.9755794;41.3523108
Acis;2.1604997;41.4145283
Regina Carmeli;2.0294274;41.4895815
Escola Jaume Balmes;1.9248633;41.4151366
Josep Tous;2.1288894;41.3745852
La Salle Comtal;2.1754968;41.3880273
Institut de Santa Coloma de Gramenet;2.2006566;41.4555811
CFA Arquitecte Jujol;2.0626421;41.3663164
Escola Els Convents;1.9307676;41.4726786
Escola Oficial Idiomes Barcelona IV. La Pau;2.2089213;41.4236937
Escola Josep Maria Madorell;2.0204981;41.4045935
Col·legi Seimar;2.2056774;41.4512881
Institut Montpedrós;2.012976;41.3648077
Escola Mare de Déu de Montserrat;1.9821236;41.47386
Escola Montserrat;2.1105719;41.4094759
Liceu Castro de la Peña;2.175375;41.4169696
Escola Àngela Roca;2.0171171;41.3205466
Escola Josep Maria Folch i Torres;2.1028469;41.370064
Institut d'Educació Secundària Margarida Xirgu;2.1143158;41.3749402
Escola Sagrada Familia;2.2065362;41.459063
Escola Rosselló Pòrcel;2.215336;41.4507447
Santíssima Trinitat;2.2207495;41.43267
Mare de Déu de l'Assumpció;2.2283886;41.4386593
Alegre;2.100404;41.3691124
Acis-Artur Martorell;2.1620824;41.4166312
Escola Anne Sullivan;1.9668089;41.4183197
CFA Canyelles;2.1629779;41.4431727
Sagrat Cor-Sarrià;2.1170137;41.4006461
Escola Paco Candel;2.1216768;41.360104
Barcelona Sports Academy;2.0978867;41.4792026
Col·legi Urgell;2.1529277;41.3858436
Escola Auró;2.1524727;41.3857633
Institut Angeleta Ferrer;2.1789659;41.4001058
Institut Torrent de les Bruixes;2.2183005;41.4595477
Escola 25 de Setembre;2.0388695;41.4828163
Escola Sagrat Cor;2.165425;41.3756337
Goar;2.0066907;41.3229755
Escola La Ginesta;1.9337064;41.3854041
Col·legi Sant Antoni Maria Claret;2.1665772;41.4059601
Escola El Turó;2.1869745;41.4819918
Institut La Ribera;2.1892824;41.4796157
Escola Pompeu Fabra;1.933672;41.3873741
Centre Educatiu Mare de Déu del Roser;2.1584273;41.3849464
Col·legi Reial Monestir de Santa Isabel;2.1259192;41.3970428
Institut Vapor del Fil;2.1921655;41.4332304
Col·legi Tecla Sala;2.0995242;41.3609949
Escola Ausiàs March;2.0940084;41.3629723
Escola Màrius Torres;2.1154701;41.3755137
Escola Sant Ramon Nonat;2.1166913;41.3760863
Salesià de Sant Josep;2.1563706;41.3774983
Escola Teixidores de Gràcia;2.1604368;41.4071181
Escola Lola Anglada;2.2688355;41.4777495
Escola d’Adults Timó;2.274348;41.4724301
Escola Norai Montgat;2.2733549;41.4686004
Escola Marta Mata;2.1764466;41.442515
Escola Reixac;2.1894388;41.4869439
Escola Salvador Espriu;2.2797577;41.4688444
Escola Salvador Espriu - Edifici Sant Joan;2.2828478;41.4682216
Institut Jaume Salvador i Pedrol;2.0503841;41.3685884
Institut Escola Puig i Gairalt;2.1071132;41.3752589
Escola Jaume Ferran i Clua;2.0421064;41.4534985
Institut Valèria Haliné;1.9648711;41.2710819
Escola Pau Vila;2.0167178;41.4378181
Institut Joanot Martorell;2.0972634;41.3792389
Institut Rubió i Ors;2.1018804;41.3684268
Escola Joan Maragall;2.0791706;41.4738689
Escola Teide;2.0045395;41.3204142
Escola Ignasi Iglésias;2.0719909;41.3637839
Escola Congrés-Indians;2.1892733;41.4254035
Institut Escola Maria Miret;2.1229135;41.3738928
Gran Capità;2.0720284;41.3678008
Escola Pia-Luz Casanova;2.1752287;41.4431366
Cultural Fluvià;2.2474524;41.4530184
Maristes Champagnat;2.248131;41.4515428
Montserrat;2.2356729;41.4516429
Institut Mare de Déu de la Mercè;2.1432848;41.3497188
Nen Jesús de Praga;2.2446202;41.4516285
Mare de Déu del Coll;2.1513276;41.4199017
I.P.S.I. Escola de Primària;2.149936;41.3868561
I.P.S.I. Escola de Secundària;2.151194;41.3861554
I.P.S.I. Escola de Batxillerat;2.1507817;41.3867987
CFA Garrosa;2.0093077;41.3913372
CodeLearn;2.1374992;41.4093346
Llar Marillac;2.1715026;41.4024203
Escola Carlit;2.1748078;41.397403
Stucom;2.1651112;41.3858343
Ramiro de Maeztu;2.2162187;41.4387273
Centre de formació professional Llefià;2.2170083;41.4379776
CodeLearn;2.0790805;41.4677526
La Salle Barceloneta;2.1889751;41.3822035
Escola de Natura Angeleta Ferrer i Sensat;2.2418194;41.4747847
Hamelin-Laie;2.2968956;41.481244
Francesc Pejoan;2.1647553;41.3990324
Escola Ángel Baixeiras;2.178929;41.3810462
Mare del Diví Pastor;2.1753283;41.3935321
studi central;1.9140039;41.4743697
CFA El Clot;2.1922369;41.4114074
Sant Marc de Sarrià;2.1229418;41.4015789
Escola Gaia;2.1828802;41.4037889
La Farigola de Vallcarca;2.1467863;41.413805
Maria Selyanina's House-Pastry Lab;2.0894909;41.3867479
The Corner;2.2119189;41.4495816
The Corner;2.2102621;41.4507973
Tau;2.2114032;41.4500104
L'excentrica;2.2063857;41.4567051
The Corner Centre d' Estudis;2.2098507;41.4504082
La Colmena;2.2072085;41.4516762
Vedruna Immaculada Barcelona;2.1811715;41.4074982
Shalom;2.1615752;41.3922402
Escola Tiziana;2.2725918;41.4776877
Institut escola Tres Fonts de Les Corts;2.1285117;41.3850217
Escola Bressol Can Bacardí;2.1238033;41.379259
Escola Tècnico-Professional Xavier;2.1775217;41.3857648
Mare de Déu de Núria;2.1854155;41.4107971
Institut Lluïsa Cura;2.1631646;41.3809351
Institut Les Corts;2.1262533;41.3814774
Prat;2.1655929;41.3954608
Santa Teresa de Lisieux;2.1350304;41.3884185
El Joncar;2.2046063;41.4014406
Nen Déu;2.1776212;41.4231538
Canigó;2.1331531;41.4110373
St. Nicholas School;2.1633911;41.396571
Format Centre d'Estudis-Serveis Informàtics;2.2955643;41.4951181
Lleó XIII;2.1373285;41.4125428
CFA Rius i Taulet;2.1497687;41.4030447
Mary Ward;2.1416892;41.4018643
Escola Nausica;2.1452907;41.3971348
La casa del cine;2.1620797;41.4054365
Escola d'Aprenents SEAT;2.1428785;41.3541097
Escola Cultural;2.2206064;41.4364714
CFA Maria Rubies;2.1699014;41.3786314
L'Obrador del Burot;2.1657096;41.4067344
La Capsa de Colors;2.1646505;41.4066618
Escola Arcadia;2.1368274;41.3690684
Les Mans;2.1811954;41.4107648
Sant Josep Oriol;2.1575804;41.3843765
Escola Solc Nou;2.1425476;41.4145079
Guinardó;2.1796074;41.4199199
FEP Sant Medir;2.1383851;41.3696026
Centre d'Estudis Dolmen;2.1307293;41.3687016
Acadèmia Cultura;2.1259432;41.3705956
CFA Catalònia;2.1300427;41.361977
Immaculada Concepció Barcelona;2.1618131;41.3913086
Cruïlla al Punt. Escola de cuina;2.1806539;41.4598999
Escola Bernat Desclot;2.1308905;41.3632902
Escola Balaguer;2.1131179;41.3677403
Escola Joan Triadú;2.1598482;41.4066921
Kumon;2.1934399;41.4073716
Escola Estel-Guinardó;2.172604;41.4175649
Escola d'Art la Industrial;2.1481997;41.3882602
CFA Palau de Mar;2.1484308;41.3879238
Escola Joso;2.1442937;41.3842387
Llotja. Escola superior de disseny i art;2.1921475;41.4274712
Mare de Déu dels Àngels;2.1912905;41.4233164
Barcelona Akademy of art;2.1989863;41.397816
Escola Piaget;2.1524419;41.4223901
Santa Teresa de Jesús;2.1556907;41.4242233
CFA Bellvitge-Gornal;2.1173847;41.3526593
Escola Magòria;2.1465096;41.3716637
Perez Iborra;2.163455;41.3896119
Col·legi Sagrat Cor;2.001235;41.3070515
NOVA estudis;2.1141121;41.386966
Magic Mirror Center;2.1236315;41.3895553
Manent Rambla;2.2142623;41.4508458
Minguella;2.2544865;41.450887
López Torrejón;2.2407939;41.4438764
Danzalona;2.2388788;41.4454759
Institut Josefina Castellví i Piulachs;2.0105001;41.3077763
Escola Enxaneta;2.0109627;41.3075379
Col·legi Alfageme;2.1385526;41.3611946
Escola Entença;2.145432;41.3827802
Forma't;2.1436946;41.3745231
Idiomes Tarradellas;2.1435282;41.3887631
Som-hi dansa;2.144448;41.3912453
Escola Nàutica Port Olímpic;2.1466186;41.391903
Col-legi Camí;2.1809513;41.4296985
Escuela de Artes Aplicadas y Oficios Antiguos;2.17748;41.3809032
El Roser;2.0185057;41.3551854
Codelearn Rubí;2.0329072;41.4890572
Epitech Barcelone;2.1939432;41.3910039
Eada business school Barcelona;2.156194;41.3904669
Institut de Nàutica de Barcelona;2.1882103;41.3758124
Princess Margaret School;2.1659356;41.4265349
English School;2.1374529;41.4119181
Mireia;2.2706625;41.4624576
Escola Mary Ward;2.1409831;41.4011438
Escola Montserrat;2.0758933;41.3817557
Escola Montserrat;2.0759211;41.3818846
Sant Josep Teresianes;2.1653126;41.4057834
Institut Escola del Treball;2.1485642;41.3889909
Escola Joan Triadú;2.160263;41.4066007
Escola Taiga;2.1117111;41.4086586
Escola Sants Innocents;2.1815653;41.4248306
Escoles Fàsia;2.125094;41.4051254
Escola Fedac Horta;2.1552118;41.4343374
OAK House School;2.1175787;41.407014
Escuela Ucraniana MRIYA;2.196165;41.4217333
acidH;2.1612391;41.402057
Escola Gravi;2.1407117;41.4183958
Mare de Déu de Montserrat. Escola d'educació especial;2.1719345;41.4174852
Escola de dansa - STAGE;2.1778942;41.4134349
CFA Freire;2.1759238;41.4446992
CFA Prosperitat;2.1794888;41.4441248
Escola Concepcionistes;2.14863;41.4056557
Sant Francesc d'Assís;2.1633796;41.3851397
